$ADVER,3080,2.3
$GPRMC,195928.192,A,3748.2016,N,12217.6812,W,0.74,41.15,160714,,,A*48
$GPRMC,195929.192,A,3748.2017,N,12217.6811,W,0.55,17.25,160714,,,A*48
$GPRMC,195930.193,A,3748.2019,N,12217.6810,W,0.59,14.75,160714,,,A*44
$GPRMC,195931.000,A,3748.2033,N,12217.6801,W,0.56,16.33,160714,,,A*49
$GPRMC,195932.000,A,3748.2037,N,12217.6799,W,1.02,20.41,160714,,,A*40
$GPRMC,195933.000,A,3748.2041,N,12217.6796,W,0.58,20.60,160714,,,A*42
$GPRMC,195934.000,A,3748.2041,N,12217.6800,W,0.47,19.35,160714,,,A*41
$GPRMC,195935.000,A,3748.2044,N,12217.6797,W,0.58,20.51,160714,,,A*42
$GPRMC,195936.000,A,3748.2046,N,12217.6792,W,0.65,24.06,160714,,,A*4E
$GPRMC,195937.000,A,3748.2040,N,12217.6808,W,0.55,255.15,160714,,,A*70
$GPRMC,195938.000,A,3748.2037,N,12217.6814,W,0.43,242.50,160714,,,A*72
$GPRMC,195939.000,A,3748.2035,N,12217.6817,W,0.19,260.33,160714,,,A*78
$GPRMC,195940.000,A,3748.2034,N,12217.6821,W,0.14,302.49,160714,,,A*77
$GPRMC,195941.000,A,3748.2032,N,12217.6824,W,0.15,343.52,160714,,,A*7B
$GPRMC,195942.000,A,3748.2031,N,12217.6826,W,0.16,353.16,160714,,,A*7B
$GPRMC,195943.000,A,3748.2031,N,12217.6826,W,0.32,13.53,160714,,,A*4A
$GPRMC,195944.000,A,3748.2031,N,12217.6825,W,0.46,17.52,160714,,,A*48
$GPRMC,195945.000,A,3748.2032,N,12217.6824,W,0.50,18.05,160714,,,A*41
$GPRMC,195946.000,A,3748.2032,N,12217.6823,W,0.51,23.91,160714,,,A*41
$GPRMC,195947.000,A,3748.2033,N,12217.6821,W,0.53,19.21,160714,,,A*43
$GPRMC,195948.000,A,3748.2033,N,12217.6820,W,0.54,21.03,160714,,,A*41
$GPRMC,195949.000,A,3748.2034,N,12217.6818,W,0.54,23.83,160714,,,A*46
$GPRMC,195950.000,A,3748.2035,N,12217.6816,W,0.60,24.21,160714,,,A*49
$GPRMC,195951.000,A,3748.2035,N,12217.6814,W,0.55,26.54,160714,,,A*4C
$GPRMC,195952.000,A,3748.2036,N,12217.6812,W,0.54,23.66,160714,,,A*4F
$GPRMC,195953.000,A,3748.2036,N,12217.6810,W,0.50,22.39,160714,,,A*43
$GPRMC,195954.000,A,3748.2037,N,12217.6809,W,0.48,21.83,160714,,,A*46
$GPRMC,195955.000,A,3748.2037,N,12217.6807,W,0.48,22.31,160714,,,A*43
$GPRMC,195956.000,A,3748.2038,N,12217.6806,W,0.42,22.77,160714,,,A*46
$GPRMC,195957.000,A,3748.2038,N,12217.6805,W,0.37,20.48,160714,,,A*48
$GPRMC,195958.000,A,3748.2039,N,12217.6803,W,0.47,24.56,160714,,,D*49
$GPRMC,195959.000,A,3748.2041,N,12217.6801,W,0.52,21.15,160714,,,D*43
$GPRMC,200000.000,A,3748.2042,N,12217.6800,W,0.48,26.00,160714,,,D*43
$GPRMC,200001.000,A,3748.2043,N,12217.6799,W,0.48,21.86,160714,,,D*45
$GPRMC,200002.000,A,3748.2044,N,12217.6798,W,0.36,18.11,160714,,,D*4D
$GPRMC,200003.000,A,3748.2044,N,12217.6797,W,0.28,25.03,160714,,,D*41
$GPRMC,200004.000,A,3748.2043,N,12217.6797,W,0.15,17.94,160714,,,D*40
$GPRMC,200005.000,A,3748.2043,N,12217.6796,W,0.14,21.32,160714,,,D*48
$GPRMC,200006.000,A,3748.1998,N,12217.6821,W,0.05,188.74,160714,,,D*74
$GPRMC,200007.000,A,3748.1988,N,12217.6826,W,0.07,191.07,160714,,,D*7D
$GPRMC,200008.000,A,3748.1984,N,12217.6828,W,0.05,197.35,160714,,,D*75
$GPRMC,200009.000,A,3748.1981,N,12217.6829,W,0.03,34.46,160714,,,D*4A
$GPRMC,200010.000,A,3748.1982,N,12217.6828,W,0.06,40.70,160714,,,D*43
$GPRMC,200011.000,A,3748.1983,N,12217.6827,W,0.19,37.42,160714,,,D*43
$GPRMC,200012.000,A,3748.1981,N,12217.6828,W,0.15,71.23,160714,,,D*44
$GPRMC,200013.000,A,3748.1979,N,12217.6829,W,0.02,158.67,160714,,,D*7F
$GPRMC,200014.000,A,3748.1978,N,12217.6830,W,0.21,281.14,160714,,,D*73
$GPRMC,200015.000,A,3748.1978,N,12217.6830,W,0.05,67.74,160714,,,D*48
$GPRMC,200016.000,A,3748.1976,N,12217.6831,W,0.02,1.00,160714,,,D*70
$GPRMC,200017.000,A,3748.1975,N,12217.6831,W,0.02,352.81,160714,,,D*7E
$GPRMC,200018.000,A,3748.1973,N,12217.6831,W,0.29,94.27,160714,,,D*4B
$GPRMC,200019.000,A,3748.1972,N,12217.6829,W,0.52,98.12,160714,,,D*44
$GPRMC,200020.000,A,3748.1970,N,12217.6827,W,0.72,97.72,160714,,,D*49
$GPRMC,200021.000,A,3748.1968,N,12217.6825,W,0.71,102.81,160714,,,D*71
$GPRMC,200022.000,A,3748.1966,N,12217.6824,W,0.12,157.78,160714,,,D*7E
$GPRMC,200023.000,A,3748.1965,N,12217.6824,W,0.13,153.51,160714,,,D*72
$GPRMC,200024.000,A,3748.1964,N,12217.6825,W,0.10,246.28,160714,,,D*7F
$GPRMC,200025.000,A,3748.1964,N,12217.6825,W,0.14,282.35,160714,,,D*7E
$GPRMC,200026.000,A,3748.1963,N,12217.6825,W,0.08,166.52,160714,,,D*7F
$GPRMC,200027.000,A,3748.1963,N,12217.6826,W,0.12,282.64,160714,,,D*7A
$GPRMC,200028.000,A,3748.1963,N,12217.6826,W,0.03,107.91,160714,,,D*71
$GPRMC,200029.000,A,3748.1962,N,12217.6825,W,0.14,119.27,160714,,,D*76
$GPRMC,200030.000,A,3748.1962,N,12217.6824,W,0.16,124.02,160714,,,D*74
$GPRMC,200031.000,A,3748.1962,N,12217.6824,W,0.11,290.73,160714,,,D*78
$GPRMC,200032.000,A,3748.1962,N,12217.6825,W,0.26,299.05,160714,,,D*76
$GPRMC,200033.000,A,3748.1963,N,12217.6825,W,0.16,30.70,160714,,,D*46
$GPRMC,200034.000,A,3748.1963,N,12217.6829,W,0.07,329.00,160714,,,D*71
$GPRMC,200035.000,A,3748.1964,N,12217.6832,W,0.07,356.30,160714,,,D*76
$GPRMC,200036.000,A,3748.1965,N,12217.6835,W,0.12,320.10,160714,,,D*74
$GPRMC,200037.000,A,3748.1965,N,12217.6837,W,0.07,335.81,160714,,,D*7F
$GPRMC,200038.000,A,3748.1965,N,12217.6838,W,0.13,315.31,160714,,,D*73
$GPRMC,200039.000,A,3748.1966,N,12217.6840,W,0.14,299.90,160714,,,D*77
$GPRMC,200040.000,A,3748.1967,N,12217.6840,W,0.24,341.04,160714,,,D*72
$GPRMC,200041.000,A,3748.1968,N,12217.6840,W,0.17,348.67,160714,,,D*70
$GPRMC,200042.000,A,3748.1969,N,12217.6840,W,0.21,309.94,160714,,,D*7E
$GPRMC,200043.000,A,3748.1970,N,12217.6841,W,0.17,333.84,160714,,,D*7B
$GPRMC,200044.000,A,3748.1970,N,12217.6841,W,0.10,311.54,160714,,,D*76
$GPRMC,200045.000,A,3748.1971,N,12217.6841,W,0.26,302.90,160714,,,D*79
$GPRMC,200046.000,A,3748.1972,N,12217.6842,W,0.34,305.39,160714,,,D*7D
$GPRMC,200047.000,A,3748.1973,N,12217.6843,W,0.28,312.55,160714,,,D*7D
$GPRMC,200048.000,A,3748.1973,N,12217.6843,W,0.11,12.21,160714,,,D*48
$GPRMC,200049.000,A,3748.1974,N,12217.6843,W,0.11,318.70,160714,,,D*73
$GPRMC,200050.000,A,3748.1974,N,12217.6843,W,0.13,340.40,160714,,,D*77
$GPRMC,200051.000,A,3748.1975,N,12217.6843,W,0.13,16.54,160714,,,D*42
$GPRMC,200052.000,A,3748.1975,N,12217.6843,W,0.16,1.21,160714,,,D*70
$GPRMC,200053.000,A,3748.1976,N,12217.6843,W,0.12,342.54,160714,,,D*70
$GPRMC,200054.000,A,3748.1976,N,12217.6842,W,0.20,45.25,160714,,,D*45
$GPRMC,200055.000,A,3748.1976,N,12217.6841,W,0.25,74.78,160714,,,D*48
$GPRMC,200056.000,A,3748.1976,N,12217.6841,W,0.18,335.94,160714,,,D*71
$GPRMC,200057.000,A,3748.1977,N,12217.6842,W,0.34,302.88,160714,,,D*75
$GPRMC,200058.000,A,3748.1978,N,12217.6843,W,0.32,309.48,160714,,,D*75
$GPRMC,200059.000,A,3748.1979,N,12217.6844,W,0.37,309.17,160714,,,D*7D
$GPRMC,200100.000,A,3748.1980,N,12217.6845,W,0.49,306.35,160714,,,D*71
$GPRMC,200101.000,A,3748.1980,N,12217.6846,W,0.29,318.86,160714,,,D*72
$GPRMC,200102.000,A,3748.1980,N,12217.6845,W,0.22,37.18,160714,,,D*40
$GPRMC,200103.000,A,3748.1980,N,12217.6844,W,0.13,50.28,160714,,,D*40
$GPRMC,200104.000,A,3748.1980,N,12217.6844,W,0.08,2.41,160714,,,D*75
$GPRMC,200105.000,A,3748.1980,N,12217.6842,W,0.47,82.11,160714,,,D*44
$GPRMC,200106.000,A,3748.1980,N,12217.6841,W,0.09,349.42,160714,,,D*7C
$GPRMC,200107.000,A,3748.1980,N,12217.6840,W,0.09,85.80,160714,,,D*41
$GPRMC,200108.000,A,3748.1980,N,12217.6840,W,0.09,320.40,160714,,,D*7E
$GPRMC,200109.000,A,3748.1980,N,12217.6840,W,0.12,301.62,160714,,,D*76
$GPRMC,200108.000,A,3748.1980,N,12217.6839,W,0.12,46.24,160714,,,D*4B
$GPRMC,200109.000,A,3748.1980,N,12217.6839,W,0.11,11.50,160714,,,D*48
$GPRMC,200110.000,A,3748.1980,N,12217.6838,W,0.03,339.35,160714,,,D*78
$GPRMC,200111.000,A,3748.1981,N,12217.6839,W,0.34,11.32,160714,,,D*43
$GPRMC,200112.000,A,3748.1982,N,12217.6840,W,0.31,335.91,160714,,,D*74
$GPRMC,200113.000,A,3748.1982,N,12217.6840,W,0.21,16.90,160714,,,D*47
$GPRMC,200114.000,A,3748.1983,N,12217.6840,W,0.25,34.51,160714,,,D*48
$GPRMC,200115.000,A,3748.1983,N,12217.6840,W,0.11,43.65,160714,,,D*49
$GPRMC,200116.000,A,3748.1984,N,12217.6841,W,0.16,336.25,160714,,,D*7E
$GPRMC,200117.000,A,3748.1985,N,12217.6842,W,0.22,318.61,160714,,,D*76
$GPRMC,200118.000,A,3748.1986,N,12217.6843,W,0.19,66.69,160714,,,D*41
$GPRMC,200119.000,A,3748.1986,N,12217.6844,W,0.10,60.69,160714,,,D*48
$GPRMC,200120.000,A,3748.1986,N,12217.6845,W,0.12,308.22,160714,,,D*73
$GPRMC,200121.000,A,3748.1986,N,12217.6845,W,0.16,81.31,160714,,,D*46
$GPRMC,200122.000,A,3748.1986,N,12217.6846,W,0.11,310.97,160714,,,D*76
$GPRMC,200123.000,A,3748.1986,N,12217.6847,W,0.11,305.55,160714,,,D*7C
$GPRMC,200124.000,A,3748.1985,N,12217.6848,W,0.07,329.12,160714,,,D*7D
$GPRMC,200125.000,A,3748.1983,N,12217.6841,W,0.15,109.33,160714,,,D*73
$GPRMC,200126.000,A,3748.1983,N,12217.6841,W,0.17,36.24,160714,,,D*49
$GPRMC,200127.000,A,3748.1983,N,12217.6843,W,0.10,70.06,160714,,,D*4F
$GPRMC,200128.000,A,3748.1982,N,12217.6841,W,0.67,8.67,160714,,,D*7B
$GPRMC,200129.000,A,3748.1983,N,12217.6836,W,0.83,356.79,160714,,,D*76
$GPRMC,200130.000,A,3748.1984,N,12217.6834,W,0.71,50.82,160714,,,D*47
$GPRMC,200131.000,A,3748.1984,N,12217.6831,W,0.19,76.12,160714,,,D*40
$GPRMC,200132.000,A,3748.1983,N,12217.6830,W,0.45,133.15,160714,,,D*7B
$GPRMC,200133.000,A,3748.1982,N,12217.6829,W,0.61,104.66,160714,,,D*75
$GPRMC,200134.000,A,3748.1980,N,12217.6828,W,0.72,148.48,160714,,,D*77
$GPRMC,200135.000,A,3748.1978,N,12217.6826,W,0.82,118.83,160714,,,D*72
$GPRMC,200136.000,A,3748.1977,N,12217.6824,W,0.80,112.11,160714,,,D*7F
$GPRMC,200137.000,A,3748.1975,N,12217.6821,W,1.35,109.43,160714,,,D*7B
$GPRMC,200138.000,A,3748.1974,N,12217.6816,W,1.34,105.84,160714,,,D*77
$GPRMC,200139.000,A,3748.1970,N,12217.6813,W,1.38,117.79,160714,,,D*7A
$GPRMC,200140.000,A,3748.1967,N,12217.6809,W,1.46,115.39,160714,,,D*76
$GPRMC,200141.000,A,3748.1964,N,12217.6805,W,1.37,106.31,160714,,,D*74
$GPRMC,200142.000,A,3748.1962,N,12217.6802,W,1.40,117.34,160714,,,D*73
$GPRMC,200143.000,A,3748.1959,N,12217.6798,W,1.44,113.96,160714,,,D*7E
$GPRMC,200144.000,A,3748.1955,N,12217.6794,W,1.72,111.10,160714,,,D*70
$GPRMC,200145.000,A,3748.1954,N,12217.6789,W,1.67,112.26,160714,,,D*7E
$GPRMC,200146.000,A,3748.1952,N,12217.6783,W,1.78,122.97,160714,,,D*76
$GPRMC,200147.000,A,3748.1950,N,12217.6778,W,1.79,118.34,160714,,,D*70
$GPRMC,200148.000,A,3748.1948,N,12217.6772,W,2.00,118.52,160714,,,D*71
$GPRMC,200149.000,A,3748.1945,N,12217.6766,W,1.79,115.97,160714,,,D*71
$GPRMC,200150.000,A,3748.1943,N,12217.6760,W,1.88,112.78,160714,,,D*71
$GPRMC,200151.000,A,3748.1940,N,12217.6755,W,1.92,108.99,160714,,,D*7A
$GPRMC,200152.000,A,3748.1938,N,12217.6749,W,1.95,105.42,160714,,,D*77
$GPRMC,200153.000,A,3748.1937,N,12217.6742,W,2.01,114.63,160714,,,D*7F
$GPRMC,200154.000,A,3748.1934,N,12217.6735,W,2.28,118.17,160714,,,D*7F
$GPRMC,200155.000,A,3748.1931,N,12217.6729,W,2.08,115.44,160714,,,D*7F
$GPRMC,200156.000,A,3748.1929,N,12217.6723,W,1.78,114.62,160714,,,D*7E
$GPRMC,200157.000,A,3748.1924,N,12217.6718,W,1.84,121.72,160714,,,D*7E
$GPRMC,200158.000,A,3748.1920,N,12217.6713,W,1.82,121.91,160714,,,D*75
$GPRMC,200159.000,A,3748.1917,N,12217.6708,W,1.84,123.73,160714,,,D*72
$GPRMC,200200.000,A,3748.1912,N,12217.6703,W,1.98,121.97,160714,,,D*76
$GPRMC,200201.000,A,3748.1909,N,12217.6697,W,1.84,116.49,160714,,,D*7B
$GPRMC,200202.000,A,3748.1908,N,12217.6691,W,1.93,106.55,160714,,,D*75
$GPRMC,200203.000,A,3748.1903,N,12217.6682,W,1.87,129.05,160714,,,D*70
$GPRMC,200204.000,A,3748.1898,N,12217.6677,W,1.72,145.81,160714,,,D*72
$GPRMC,200205.000,A,3748.1895,N,12217.6675,W,1.11,163.80,160714,,,D*7C
$GPRMC,200206.000,A,3748.1890,N,12217.6674,W,1.22,184.69,160714,,,D*75
$GPRMC,200207.000,A,3748.1886,N,12217.6674,W,1.39,179.35,160714,,,D*72
$GPRMC,200208.000,A,3748.1882,N,12217.6674,W,1.30,190.97,160714,,,D*7F
$GPRMC,200209.000,A,3748.1877,N,12217.6676,W,1.46,193.51,160714,,,D*7E
$GPRMC,200210.000,A,3748.1872,N,12217.6677,W,1.19,187.31,160714,,,D*7B
$GPRMC,200211.000,A,3748.1869,N,12217.6678,W,0.84,187.44,160714,,,D*78
$GPRMC,200212.000,A,3748.1865,N,12217.6678,W,1.10,188.17,160714,,,D*72
$GPRMC,200213.000,A,3748.1860,N,12217.6678,W,1.33,184.84,160714,,,D*71
$GPRMC,200214.000,A,3748.1856,N,12217.6679,W,0.91,190.07,160714,,,D*75
$GPRMC,200215.000,A,3748.1853,N,12217.6679,W,0.68,199.07,160714,,,D*7E
$GPRMC,200216.000,A,3748.1850,N,12217.6682,W,0.84,203.94,160714,,,D*72
$GPRMC,200217.000,A,3748.1847,N,12217.6684,W,0.72,193.13,160714,,,D*7F
$GPRMC,200218.000,A,3748.1843,N,12217.6685,W,0.99,196.10,160714,,,D*76
$GPRMC,200219.000,A,3748.1840,N,12217.6687,W,0.65,202.63,160714,,,D*7F
$GPRMC,200220.000,A,3748.1837,N,12217.6689,W,0.89,184.93,160714,,,D*7B
$GPRMC,200221.000,A,3748.1833,N,12217.6690,W,0.63,190.04,160714,,,D*79
$GPRMC,200222.000,A,3748.1830,N,12217.6692,W,0.52,222.16,160714,,,D*70
$GPRMC,200223.000,A,3748.1826,N,12217.6694,W,0.73,208.25,160714,,,D*7B
$GPRMC,200224.000,A,3748.1823,N,12217.6696,W,0.59,207.47,160714,,,D*78
$GPRMC,200225.000,A,3748.1821,N,12217.6698,W,0.47,230.93,160714,,,D*77
$GPRMC,200226.000,A,3748.1819,N,12217.6700,W,0.28,213.47,160714,,,D*7E
$GPRMC,200227.000,A,3748.1816,N,12217.6701,W,0.15,92.71,160714,,,D*41
$GPRMC,200228.000,A,3748.1813,N,12217.6699,W,0.07,328.31,160714,,,D*7E
$GPRMC,200229.000,A,3748.1812,N,12217.6700,W,0.24,257.44,160714,,,D*75
$GPRMC,200230.000,A,3748.1811,N,12217.6702,W,0.23,250.96,160714,,,D*73
$GPRMC,200231.000,A,3748.1810,N,12217.6703,W,0.27,318.93,160714,,,D*7E
$GPRMC,200232.000,A,3748.1809,N,12217.6705,W,0.38,351.08,160714,,,D*72
$GPRMC,200233.000,A,3748.1809,N,12217.6706,W,0.15,282.59,160714,,,D*74
$GPRMC,200234.000,A,3748.1808,N,12217.6707,W,0.14,278.23,160714,,,D*7A
$GPRMC,200235.000,A,3748.1806,N,12217.6707,W,0.29,222.53,160714,,,D*73
$GPRMC,200236.000,A,3748.1804,N,12217.6708,W,0.51,213.70,160714,,,D*71
$GPRMC,200237.000,A,3748.1802,N,12217.6709,W,0.46,196.80,160714,,,D*70
$GPRMC,200238.000,A,3748.1800,N,12217.6709,W,0.22,195.68,160714,,,D*7A
$GPRMC,200239.000,A,3748.1799,N,12217.6709,W,0.07,251.62,160714,,,D*72
$GPRMC,200240.000,A,3748.1799,N,12217.6709,W,0.15,196.29,160714,,,D*78
$GPRMC,200241.000,A,3748.1799,N,12217.6710,W,0.06,284.48,160714,,,D*74
$GPRMC,200242.000,A,3748.1799,N,12217.6710,W,0.09,23.55,160714,,,D*4B
$GPRMC,200243.000,A,3748.1797,N,12217.6711,W,0.05,202.62,160714,,,D*7C
$GPRMC,200244.000,A,3748.1797,N,12217.6710,W,0.03,174.23,160714,,,D*7B
$GPRMC,200245.000,A,3748.1796,N,12217.6710,W,0.39,197.31,160714,,,D*7C
$GPRMC,200246.000,A,3748.1795,N,12217.6710,W,0.12,43.91,160714,,,D*47
$GPRMC,200247.000,A,3748.1795,N,12217.6709,W,0.19,52.78,160714,,,D*42
$GPRMC,200248.000,A,3748.1796,N,12217.6708,W,0.30,40.05,160714,,,D*4D
$GPRMC,200249.000,A,3748.1796,N,12217.6707,W,0.24,45.43,160714,,,D*41
$GPRMC,200250.000,A,3748.1796,N,12217.6706,W,0.23,52.87,160714,,,D*41
$GPRMC,200251.000,A,3748.1796,N,12217.6706,W,0.19,41.13,160714,,,D*46
$GPRMC,200252.000,A,3748.1796,N,12217.6706,W,0.16,48.53,160714,,,D*47
$GPRMC,200253.000,A,3748.1796,N,12217.6705,W,0.25,54.97,160714,,,D*40
$GPRMC,200254.000,A,3748.1793,N,12217.6707,W,0.09,173.86,160714,,,D*7A
$GPRMC,200255.000,A,3748.1791,N,12217.6707,W,0.06,174.44,160714,,,D*7F
$GPRMC,200256.000,A,3748.1791,N,12217.6708,W,0.04,180.14,160714,,,D*7F
$GPRMC,200257.000,A,3748.1789,N,12217.6708,W,0.04,90.84,160714,,,D*4E
$GPRMC,200258.000,A,3748.1787,N,12217.6708,W,0.04,49.39,160714,,,D*4D
$GPRMC,200259.000,A,3748.1786,N,12217.6709,W,0.06,75.23,160714,,,D*4A
$GPRMC,200300.000,A,3748.1785,N,12217.6709,W,0.12,70.60,160714,,,D*43
$GPRMC,200301.000,A,3748.1785,N,12217.6710,W,0.05,199.16,160714,,,D*7B
$GPRMC,200302.000,A,3748.1786,N,12217.6710,W,0.21,271.88,160714,,,D*7F
$GPRMC,200303.000,A,3748.1785,N,12217.6710,W,0.28,332.76,160714,,,D*73
$GPRMC,200304.000,A,3748.1784,N,12217.6710,W,0.38,202.45,160714,,,D*76
$GPRMC,200305.000,A,3748.1783,N,12217.6710,W,0.52,194.23,160714,,,D*70
$GPRMC,200306.000,A,3748.1782,N,12217.6710,W,0.06,26.62,160714,,,D*4E
$GPRMC,200307.000,A,3748.1782,N,12217.6710,W,0.22,187.59,160714,,,D*7B
$GPRMC,200308.000,A,3748.1782,N,12217.6710,W,0.12,321.69,160714,,,D*7A
$GPRMC,200309.000,A,3748.1783,N,12217.6711,W,0.14,242.85,160714,,,D*7B
$GPRMC,200310.000,A,3748.1783,N,12217.6711,W,0.14,20.02,160714,,,D*4A
$GPRMC,200311.000,A,3748.1785,N,12217.6712,W,0.52,9.18,160714,,,D*7C
$GPRMC,200312.000,A,3748.1788,N,12217.6712,W,0.20,17.92,160714,,,D*4A
$GPRMC,200313.000,A,3748.1788,N,12217.6712,W,0.12,183.44,160714,,,D*7D
$GPRMC,200314.000,A,3748.1789,N,12217.6713,W,0.18,294.94,160714,,,D*78
$GPRMC,200315.000,A,3748.1789,N,12217.6716,W,0.33,311.39,160714,,,D*7E
$GPRMC,200316.000,A,3748.1791,N,12217.6717,W,0.28,322.02,160714,,,D*77
$GPRMC,200317.000,A,3748.1791,N,12217.6719,W,0.16,309.89,160714,,,D*7F
$GPRMC,200318.000,A,3748.1792,N,12217.6721,W,0.16,303.32,160714,,,D*72
$GPRMC,200319.000,A,3748.1793,N,12217.6724,W,0.19,162.25,160714,,,D*7B
$GPRMC,200320.000,A,3748.1793,N,12217.6727,W,0.18,175.58,160714,,,D*7F
$GPRMC,200321.000,A,3748.1792,N,12217.6728,W,0.22,148.39,160714,,,D*70
$GPRMC,200322.000,A,3748.1791,N,12217.6730,W,0.13,250.64,160714,,,D*79
$GPRMC,200323.000,A,3748.1793,N,12217.6732,W,0.19,319.99,160714,,,D*7C
$GPRMC,200324.000,A,3748.1793,N,12217.6731,W,0.16,248.00,160714,,,D*72
$GPRMC,200325.000,A,3748.1792,N,12217.6730,W,0.19,20.91,160714,,,D*48
$GPRMC,200326.000,A,3748.1789,N,12217.6727,W,0.16,157.79,160714,,,D*7F
$GPRMC,200327.000,A,3748.1788,N,12217.6725,W,0.13,43.72,160714,,,D*47
$GPRMC,200328.000,A,3748.1789,N,12217.6726,W,0.35,5.61,160714,,,D*7E
$GPRMC,200329.000,A,3748.1785,N,12217.6726,W,0.08,7.15,160714,,,D*7C
$GPRMC,200330.000,A,3748.1779,N,12217.6726,W,0.40,116.13,160714,,,D*7C
$GPRMC,200331.000,A,3748.1775,N,12217.6725,W,0.52,117.49,160714,,,D*7F
$GPRMC,200332.000,A,3748.1770,N,12217.6723,W,0.22,183.51,160714,,,D*7C
$GPRMC,200333.000,A,3748.1766,N,12217.6718,W,0.22,202.90,160714,,,D*75
$GPRMC,200334.000,A,3748.1761,N,12217.6714,W,0.82,154.08,160714,,,D*72
$GPRMC,200335.000,A,3748.1759,N,12217.6713,W,0.97,199.62,160714,,,D*76
$GPRMC,200336.000,A,3748.1754,N,12217.6712,W,1.53,181.99,160714,,,D*7D
$GPRMC,200337.000,A,3748.1750,N,12217.6712,W,1.28,177.38,160714,,,D*76
$GPRMC,200338.000,A,3748.1746,N,12217.6712,W,1.21,188.81,160714,,,D*75
$GPRMC,200339.000,A,3748.1743,N,12217.6712,W,1.57,172.53,160714,,,D*7A
$GPRMC,200340.000,A,3748.1736,N,12217.6712,W,1.14,158.81,160714,,,D*76
$GPRMC,200341.000,A,3748.1731,N,12217.6711,W,1.27,161.06,160714,,,D*76
$GPRMC,200342.000,A,3748.1728,N,12217.6713,W,0.93,209.75,160714,,,D*78
$GPRMC,200343.000,A,3748.1726,N,12217.6715,W,1.16,222.86,160714,,,D*78
$GPRMC,200344.000,A,3748.1724,N,12217.6717,W,1.26,187.28,160714,,,D*74
$GPRMC,200345.000,A,3748.1720,N,12217.6717,W,1.20,178.81,160714,,,D*74
$GPRMC,200346.000,A,3748.1716,N,12217.6717,W,1.08,179.20,160714,,,D*72
$GPRMC,200347.000,A,3748.1711,N,12217.6717,W,1.56,178.67,160714,,,D*7D
$GPRMC,200348.000,A,3748.1708,N,12217.6717,W,0.90,182.66,160714,,,D*75
$GPRMC,200349.000,A,3748.1705,N,12217.6719,W,1.20,203.48,160714,,,D*7B
$GPRMC,200350.000,A,3748.1703,N,12217.6721,W,1.04,211.99,160714,,,D*77
$GPRMC,200351.000,A,3748.1701,N,12217.6722,W,0.71,227.48,160714,,,D*7D
$GPRMC,200352.000,A,3748.1700,N,12217.6724,W,0.72,199.81,160714,,,D*79
$GPRMC,200353.000,A,3748.1697,N,12217.6724,W,1.53,184.61,160714,,,D*77
$GPRMC,200354.000,A,3748.1693,N,12217.6726,W,1.04,182.57,160714,,,D*77
$GPRMC,200355.000,A,3748.1690,N,12217.6727,W,1.21,187.97,160714,,,D*7A
$GPRMC,200356.000,A,3748.1686,N,12217.6728,W,1.53,191.27,160714,,,D*78
$GPRMC,200357.000,A,3748.1682,N,12217.6728,W,1.56,190.96,160714,,,D*73
$GPRMC,200358.000,A,3748.1679,N,12217.6729,W,1.14,179.19,160714,,,D*7F
$GPRMC,200359.000,A,3748.1675,N,12217.6729,W,1.16,169.27,160714,,,D*7C
$GPRMC,200400.000,A,3748.1672,N,12217.6729,W,1.01,189.92,160714,,,D*76
$GPRMC,200401.000,A,3748.1670,N,12217.6733,W,0.91,210.65,160714,,,D*7D
$GPRMC,200402.000,A,3748.1663,N,12217.6734,W,1.07,189.25,160714,,,D*72
$GPRMC,200403.000,A,3748.1660,N,12217.6735,W,1.18,171.76,160714,,,D*7E
$GPRMC,200404.000,A,3748.1655,N,12217.6735,W,1.62,174.63,160714,,,D*73
$GPRMC,200405.000,A,3748.1650,N,12217.6733,W,1.56,171.49,160714,,,D*7B
$GPRMC,200406.000,A,3748.1642,N,12217.6728,W,1.55,149.36,160714,,,D*71
$GPRMC,200407.000,A,3748.1634,N,12217.6724,W,1.68,165.80,160714,,,D*70
$GPRMC,200408.000,A,3748.1627,N,12217.6720,W,1.86,174.94,160714,,,D*7C
$GPRMC,200409.000,A,3748.1621,N,12217.6718,W,1.25,169.73,160714,,,D*7C
$GPRMC,200410.000,A,3748.1616,N,12217.6716,W,0.88,185.88,160714,,,D*7E
$GPRMC,200411.000,A,3748.1612,N,12217.6717,W,0.95,209.34,160714,,,D*76
$GPRMC,200412.000,A,3748.1609,N,12217.6719,W,1.03,216.94,160714,,,D*7B
$GPRMC,200413.000,A,3748.1607,N,12217.6722,W,0.64,207.02,160714,,,D*73
$GPRMC,200414.000,A,3748.1604,N,12217.6724,W,0.49,235.79,160714,,,D*73
$GPRMC,200415.000,A,3748.1602,N,12217.6727,W,0.51,228.23,160714,,,D*7D
$GPRMC,200416.000,A,3748.1598,N,12217.6729,W,0.88,211.19,160714,,,D*77
$GPRMC,200417.000,A,3748.1594,N,12217.6733,W,1.01,225.93,160714,,,D*74
$GPRMC,200418.000,A,3748.1591,N,12217.6738,W,1.09,214.21,160714,,,D*76
$GPRMC,200419.000,A,3748.1588,N,12217.6743,W,1.18,223.93,160714,,,D*7E
$GPRMC,200420.000,A,3748.1585,N,12217.6748,W,1.25,217.85,160714,,,D*7C
$GPRMC,200421.000,A,3748.1580,N,12217.6752,W,1.04,209.05,160714,,,D*77
$GPRMC,200422.000,A,3748.1576,N,12217.6757,W,1.26,199.94,160714,,,D*7A
$GPRMC,200423.000,A,3748.1570,N,12217.6764,W,1.33,207.67,160714,,,D*71
$GPRMC,200424.000,A,3748.1564,N,12217.6770,W,1.33,219.53,160714,,,D*7E
$GPRMC,200425.000,A,3748.1559,N,12217.6774,W,1.21,250.99,160714,,,D*7D
$GPRMC,200426.000,A,3748.1554,N,12217.6779,W,1.50,232.11,160714,,,D*7C
$GPRMC,200427.000,A,3748.1548,N,12217.6782,W,1.22,229.61,160714,,,D*7C
$GPRMC,200428.000,A,3748.1544,N,12217.6785,W,1.29,216.36,160714,,,D*7D
$GPRMC,200429.000,A,3748.1540,N,12217.6790,W,1.11,222.45,160714,,,D*74
$GPRMC,200430.000,A,3748.1539,N,12217.6795,W,1.07,216.45,160714,,,D*77
$GPRMC,200431.000,A,3748.1535,N,12217.6803,W,1.41,233.28,160714,,,D*74
$GPRMC,200432.000,A,3748.1535,N,12217.6809,W,0.99,254.71,160714,,,D*74
$GPRMC,200433.000,A,3748.1535,N,12217.6815,W,0.65,260.27,160714,,,D*7F
$GPRMC,200434.000,A,3748.1537,N,12217.6820,W,0.90,222.05,160714,,,D*70
$GPRMC,200435.000,A,3748.1538,N,12217.6823,W,0.97,225.47,160714,,,D*7B
$GPRMC,200436.000,A,3748.1538,N,12217.6828,W,1.10,231.92,160714,,,A*75
$GPRMC,200437.000,A,3748.1541,N,12217.6830,W,0.79,215.04,160714,,,A*74
$GPRMC,200438.000,A,3748.1541,N,12217.6831,W,1.85,192.10,160714,,,A*71
$GPRMC,200439.000,A,3748.1541,N,12217.6833,W,1.35,208.35,160714,,,A*7E
$GPRMC,200440.000,A,3748.1537,N,12217.6839,W,1.14,244.59,160714,,,A*7A
$GPRMC,200441.000,A,3748.1532,N,12217.6843,W,0.96,262.76,160714,,,A*71
$GPRMC,200442.000,A,3748.1529,N,12217.6849,W,1.51,291.52,160714,,,A*72
$GPRMC,200443.000,A,3748.1522,N,12217.6854,W,2.09,299.18,160714,,,A*7C
$GPRMC,200444.000,A,3748.1520,N,12217.6860,W,2.72,295.38,160714,,,A*7C
$GPRMC,200445.000,A,3748.1526,N,12217.6870,W,2.90,302.26,160714,,,A*76
$GPRMC,200446.000,A,3748.1523,N,12217.6872,W,2.67,304.48,160714,,,A*74
$GPRMC,200447.000,A,3748.1526,N,12217.6873,W,2.51,313.32,160714,,,A*7F
$GPRMC,200448.000,A,3748.1527,N,12217.6872,W,1.85,317.11,160714,,,A*7F
$GPRMC,200449.000,A,3748.1532,N,12217.6874,W,1.84,319.34,160714,,,A*74
$GPRMC,200450.000,A,3748.1538,N,12217.6881,W,1.27,306.91,160714,,,A*74
$GPRMC,200451.000,A,3748.1544,N,12217.6886,W,0.66,291.67,160714,,,A*7B
$GPRMC,200452.000,A,3748.1542,N,12217.6888,W,0.64,198.38,160714,,,A*72
$GPRMC,200453.000,A,3748.1545,N,12217.6887,W,1.07,196.26,160714,,,A*7E
$GPRMC,200454.000,A,3748.1543,N,12217.6889,W,1.42,196.27,160714,,,A*71
$GPRMC,200455.000,A,3748.1538,N,12217.6889,W,1.79,190.80,160714,,,A*7F
$GPRMC,200456.000,A,3748.1532,N,12217.6889,W,2.27,195.61,160714,,,A*74
$GPRMC,200457.000,A,3748.1533,N,12217.6888,W,1.83,183.38,160714,,,A*73
$GPRMC,200458.000,A,3748.1532,N,12217.6895,W,1.42,228.38,160714,,,A*7E
$GPRMC,200459.000,A,3748.1536,N,12217.6903,W,1.42,233.86,160714,,,A*7A
$GPRMC,200500.000,A,3748.1534,N,12217.6913,W,1.22,232.01,160714,,,A*7C
$GPRMC,200501.000,A,3748.1533,N,12217.6923,W,1.42,225.05,160714,,,A*7D
$GPRMC,200502.000,A,3748.1538,N,12217.6927,W,1.12,222.84,160714,,,A*7A
$GPRMC,200503.000,A,3748.1536,N,12217.6930,W,0.91,216.45,160714,,,A*73
$GPRMC,200504.000,A,3748.1540,N,12217.6933,W,0.82,249.40,160714,,,A*7B
$GPRMC,200505.000,A,3748.1532,N,12217.6934,W,0.61,273.01,160714,,,A*79
$GPRMC,200506.000,A,3748.1526,N,12217.6935,W,0.66,324.56,160714,,,A*78
$GPRMC,200507.000,A,3748.1533,N,12217.6939,W,1.84,316.44,160714,,,A*7E
$GPRMC,200508.000,A,3748.1537,N,12217.6941,W,1.84,314.81,160714,,,A*71
$GPRMC,200509.000,A,3748.1539,N,12217.6943,W,1.29,298.26,160714,,,A*73
$GPRMC,200510.000,A,3748.1543,N,12217.6952,W,1.59,287.38,160714,,,A*70
$GPRMC,200511.000,A,3748.1539,N,12217.6956,W,0.94,266.73,160714,,,A*78
$GPRMC,200512.000,A,3748.1525,N,12217.6955,W,1.09,235.35,160714,,,A*74
$GPRMC,200513.000,A,3748.1519,N,12217.6957,W,2.27,230.65,160714,,,A*77
$GPRMC,200514.000,A,3748.1526,N,12217.6969,W,1.69,274.43,160714,,,A*7C
$GPRMC,200515.000,A,3748.1533,N,12217.6980,W,2.19,282.38,160714,,,A*7F
$GPRMC,200516.000,A,3748.1531,N,12217.6984,W,1.84,251.34,160714,,,A*7F
$GPRMC,200517.000,A,3748.1527,N,12217.6989,W,1.80,261.75,160714,,,A*76
$GPRMC,200518.000,A,3748.1527,N,12217.6994,W,2.17,251.97,160714,,,A*77
$GPRMC,200519.000,A,3748.1520,N,12217.6997,W,1.54,251.40,160714,,,A*7C
$GPRMC,200520.000,A,3748.1517,N,12217.7000,W,1.24,261.51,160714,,,A*70
$GPRMC,200521.000,A,3748.1515,N,12217.7004,W,1.78,290.55,160714,,,A*74
$GPRMC,200522.000,A,3748.1517,N,12217.7011,W,1.57,287.52,160714,,,A*7D
$GPRMC,200523.000,A,3748.1499,N,12217.7013,W,1.90,229.71,160714,,,A*77
$GPRMC,200524.000,A,3748.1498,N,12217.7019,W,1.66,246.77,160714,,,D*78
$GPRMC,200525.000,A,3748.1500,N,12217.7027,W,1.89,285.43,160714,,,D*7D
$GPRMC,200526.000,A,3748.1501,N,12217.7035,W,1.81,286.26,160714,,,D*74
$GPRMC,200527.000,A,3748.1502,N,12217.7042,W,1.73,293.87,160714,,,D*74
$GPRMC,200528.000,A,3748.1502,N,12217.7047,W,1.27,270.26,160714,,,D*79
$GPRMC,200529.000,A,3748.1502,N,12217.7052,W,1.10,270.69,160714,,,D*73
$GPRMC,200530.000,A,3748.1504,N,12217.7058,W,1.39,287.61,160714,,,D*7C
$GPRMC,200531.000,A,3748.1501,N,12217.7059,W,1.23,291.64,160714,,,D*70
$GPRMC,200532.000,A,3748.1504,N,12217.7066,W,1.31,289.07,160714,,,D*75
$GPRMC,200533.000,A,3748.1504,N,12217.7070,W,1.39,285.74,160714,,,D*73
$GPRMC,200534.000,A,3748.1502,N,12217.7072,W,1.29,276.06,160714,,,D*78
$GPRMC,200535.000,A,3748.1501,N,12217.7079,W,1.62,281.06,160714,,,D*76
$GPRMC,200536.000,A,3748.1500,N,12217.7084,W,1.55,268.23,160714,,,D*72
$GPRMC,200537.000,A,3748.1502,N,12217.7090,W,1.45,275.44,160714,,,D*78
$GPRMC,200538.000,A,3748.1504,N,12217.7097,W,1.72,280.46,160714,,,D*7A
$GPRMC,200539.000,A,3748.1512,N,12217.7108,W,1.70,292.96,160714,,,D*77
$GPRMC,200540.000,A,3748.1513,N,12217.7113,W,1.12,283.43,160714,,,D*7E
$GPRMC,200541.000,A,3748.1512,N,12217.7119,W,1.54,302.13,160714,,,D*7B
$GPRMC,200542.000,A,3748.1518,N,12217.7126,W,1.30,317.93,160714,,,A*75
$GPRMC,200543.000,A,3748.1522,N,12217.7133,W,1.08,287.91,160714,,,A*78
$GPRMC,200544.000,A,3748.1521,N,12217.7139,W,1.16,312.07,160714,,,A*7B
$GPRMC,200545.000,A,3748.1522,N,12217.7149,W,1.46,290.95,160714,,,A*7B
$GPRMC,200546.000,A,3748.1529,N,12217.7158,W,1.45,281.75,160714,,,A*7E
$GPRMC,200547.000,A,3748.1536,N,12217.7165,W,1.74,269.47,160714,,,A*7A
$GPRMC,200548.000,A,3748.1537,N,12217.7177,W,1.94,280.64,160714,,,A*7F
$GPRMC,200549.000,A,3748.1537,N,12217.7183,W,1.28,251.18,160714,,,A*75
$GPRMC,200550.000,A,3748.1536,N,12217.7186,W,1.45,235.82,160714,,,A*73
$GPRMC,200551.000,A,3748.1537,N,12217.7193,W,1.24,260.61,160714,,,A*7D
$GPRMC,200552.000,A,3748.1537,N,12217.7200,W,1.34,254.44,160714,,,A*76
$GPRMC,200553.000,A,3748.1539,N,12217.7207,W,2.09,266.19,160714,,,A*7A
$GPRMC,200554.000,A,3748.1541,N,12217.7214,W,1.32,242.53,160714,,,A*73
$GPRMC,200555.000,A,3748.1544,N,12217.7221,W,1.71,271.38,160714,,,A*7B
$GPRMC,200556.000,A,3748.1545,N,12217.7228,W,1.54,288.94,160714,,,A*77
$GPRMC,200557.000,A,3748.1547,N,12217.7238,W,2.06,291.56,160714,,,A*77
$GPRMC,200558.000,A,3748.1549,N,12217.7244,W,1.46,290.70,160714,,,A*7F
$GPRMC,200559.000,A,3748.1552,N,12217.7248,W,0.99,295.83,160714,,,A*72
$GPRMC,200600.000,A,3748.1554,N,12217.7249,W,0.69,322.53,160714,,,A*75
$GPRMC,200601.000,A,3748.1557,N,12217.7250,W,0.84,279.48,160714,,,A*79
$GPRMC,200602.000,A,3748.1556,N,12217.7254,W,1.08,268.36,160714,,,A*73
$GPRMC,200603.000,A,3748.1557,N,12217.7258,W,0.73,273.01,160714,,,A*7C
$GPRMC,200604.000,A,3748.1554,N,12217.7261,W,0.99,253.34,160714,,,A*72
$GPRMC,200605.000,A,3748.1552,N,12217.7266,W,1.17,231.05,160714,,,A*73
$GPRMC,200606.000,A,3748.1551,N,12217.7269,W,0.73,248.80,160714,,,A*7C
$GPRMC,200607.000,A,3748.1553,N,12217.7271,W,1.07,278.30,160714,,,A*7C
$GPRMC,200608.000,A,3748.1555,N,12217.7276,W,1.11,284.15,160714,,,A*71
$GPRMC,200609.000,A,3748.1556,N,12217.7281,W,1.09,265.65,160714,,,A*7A
$GPRMC,200610.000,A,3748.1556,N,12217.7287,W,1.30,272.82,160714,,,A*71
$GPRMC,200611.000,A,3748.1558,N,12217.7294,W,1.78,287.83,160714,,,A*7B
$GPRMC,200612.000,A,3748.1560,N,12217.7301,W,1.44,295.03,160714,,,A*7A
$GPRMC,200613.000,A,3748.1564,N,12217.7307,W,1.24,300.95,160714,,,A*7D
$GPRMC,200614.000,A,3748.1565,N,12217.7314,W,1.77,285.60,160714,,,A*79
$GPRMC,200615.000,A,3748.1566,N,12217.7322,W,1.84,288.34,160714,,,A*7E
$GPRMC,200616.000,A,3748.1565,N,12217.7328,W,1.42,282.86,160714,,,A*7D
$GPRMC,200617.000,A,3748.1565,N,12217.7333,W,1.32,277.84,160714,,,A*79
$GPRMC,200618.000,A,3748.1565,N,12217.7339,W,1.19,278.05,160714,,,A*73
$GPRMC,200619.000,A,3748.1565,N,12217.7346,W,1.56,266.74,160714,,,A*78
$GPRMC,200620.000,A,3748.1564,N,12217.7353,W,1.48,268.06,160714,,,A*73
$GPRMC,200621.000,A,3748.1566,N,12217.7360,W,1.60,278.51,160714,,,A*79
$GPRMC,200622.000,A,3748.1565,N,12217.7367,W,1.34,254.45,160714,,,A*74
$GPRMC,200623.000,A,3748.1565,N,12217.7374,W,1.25,257.54,160714,,,A*74
$GPRMC,200624.000,A,3748.1566,N,12217.7380,W,1.47,268.18,160714,,,A*7B
$GPRMC,200625.000,A,3748.1567,N,12217.7387,W,1.51,256.26,160714,,,A*7B
$GPRMC,200626.000,A,3748.1566,N,12217.7394,W,1.42,253.96,160714,,,A*77
$GPRMC,200627.000,A,3748.1568,N,12217.7400,W,1.36,284.45,160714,,,A*75
$GPRMC,200628.000,A,3748.1573,N,12217.7409,W,1.59,286.82,160714,,,A*79
$GPRMC,200629.000,A,3748.1577,N,12217.7416,W,1.51,284.56,160714,,,A*71
$GPRMC,200630.000,A,3748.1581,N,12217.7424,W,1.57,291.05,160714,,,A*75
$GPRMC,200631.000,A,3748.1585,N,12217.7432,W,1.50,308.89,160714,,,A*75
$GPRMC,200632.000,A,3748.1587,N,12217.7438,W,1.13,311.29,160714,,,A*7B
$GPRMC,200633.000,A,3748.1589,N,12217.7444,W,1.62,296.92,160714,,,A*77
$GPRMC,200634.000,A,3748.1594,N,12217.7452,W,1.55,302.88,160714,,,A*78
$GPRMC,200635.000,A,3748.1598,N,12217.7460,W,1.71,298.70,160714,,,A*77
$GPRMC,200636.000,A,3748.1600,N,12217.7467,W,1.52,296.26,160714,,,A*7D
$GPRMC,200637.000,A,3748.1604,N,12217.7474,W,1.02,298.60,160714,,,A*73
$GPRMC,200638.000,A,3748.1608,N,12217.7476,W,0.63,19.43,160714,,,A*4E
$GPRMC,200639.000,A,3748.1612,N,12217.7477,W,0.39,12.98,160714,,,A*47
$GPRMC,200640.000,A,3748.1616,N,12217.7478,W,0.51,334.91,160714,,,A*72
$GPRMC,200641.000,A,3748.1619,N,12217.7478,W,0.42,356.36,160714,,,A*77
$GPRMC,200642.000,A,3748.1619,N,12217.7477,W,0.21,8.58,160714,,,A*7E
$GPRMC,200643.000,A,3748.1620,N,12217.7475,W,0.26,358.65,160714,,,A*78
$GPRMC,200644.000,A,3748.1620,N,12217.7474,W,0.42,352.55,160714,,,A*75
$GPRMC,200645.000,A,3748.1620,N,12217.7472,W,0.29,352.02,160714,,,A*7D
$GPRMC,200646.000,A,3748.1620,N,12217.7470,W,0.55,315.68,160714,,,A*78
$GPRMC,200647.000,A,3748.1620,N,12217.7471,W,0.41,311.89,160714,,,A*76
$GPRMC,200648.000,A,3748.1621,N,12217.7476,W,0.35,349.24,160714,,,A*76
$GPRMC,200649.000,A,3748.1621,N,12217.7480,W,0.19,354.07,160714,,,A*7D
$GPRMC,200650.000,A,3748.1624,N,12217.7484,W,0.11,263.67,160714,,,A*7F
$GPRMC,200651.000,A,3748.1625,N,12217.7487,W,0.40,167.13,160714,,,A*7C
$GPRMC,200652.000,A,3748.1625,N,12217.7488,W,0.54,147.92,160714,,,A*7E
$GPRMC,200653.000,A,3748.1627,N,12217.7486,W,0.67,102.81,160714,,,A*70
$GPRMC,200654.000,A,3748.1625,N,12217.7485,W,0.58,35.87,160714,,,A*49
$GPRMC,200655.000,A,3748.1626,N,12217.7485,W,1.07,0.36,160714,,,A*7C
$GPRMC,200656.000,A,3748.1628,N,12217.7485,W,1.25,5.41,160714,,,A*74
$GPRMC,200657.000,A,3748.1635,N,12217.7485,W,1.46,1.50,160714,,,A*78
$GPRMC,200658.000,A,3748.1639,N,12217.7488,W,1.96,340.50,160714,,,A*7D
$GPRMC,200659.000,A,3748.1643,N,12217.7490,W,1.44,15.40,160714,,,A*45
$GPRMC,200700.000,A,3748.1645,N,12217.7489,W,0.89,28.30,160714,,,A*4F
$GPRMC,200701.000,A,3748.1648,N,12217.7488,W,1.67,3.74,160714,,,A*7A
$GPRMC,200702.000,A,3748.1652,N,12217.7486,W,1.75,20.59,160714,,,A*41
$GPRMC,200703.000,A,3748.1657,N,12217.7481,W,0.96,37.55,160714,,,A*44
$GPRMC,200704.000,A,3748.1665,N,12217.7474,W,1.31,43.41,160714,,,A*42
$GPRMC,200705.000,A,3748.1671,N,12217.7470,W,0.67,43.05,160714,,,A*40
$GPRMC,200706.000,A,3748.1670,N,12217.7468,W,0.59,40.62,160714,,,A*44
$GPRMC,200707.000,A,3748.1672,N,12217.7465,W,1.49,39.98,160714,,,A*41
$GPRMC,200708.000,A,3748.1674,N,12217.7462,W,1.48,42.74,160714,,,A*40
$GPRMC,200709.000,A,3748.1679,N,12217.7458,W,1.75,32.46,160714,,,A*4D
$GPRMC,200710.000,A,3748.1686,N,12217.7455,W,1.56,22.04,160714,,,A*4E
$GPRMC,200711.000,A,3748.1695,N,12217.7451,W,1.84,14.88,160714,,,A*47
$GPRMC,200712.000,A,3748.1702,N,12217.7450,W,1.89,21.70,160714,,,A*46
$GPRMC,200713.000,A,3748.1706,N,12217.7445,W,1.62,20.80,160714,,,A*4C
$GPRMC,200714.000,A,3748.1711,N,12217.7442,W,1.24,56.12,160714,,,A*42
$GPRMC,200715.000,A,3748.1713,N,12217.7437,W,1.09,57.13,160714,,,A*4C
$GPRMC,200716.000,A,3748.1721,N,12217.7433,W,1.43,53.39,160714,,,A*48
$GPRMC,200717.000,A,3748.1729,N,12217.7427,W,1.42,48.91,160714,,,A*4D
$GPRMC,200718.000,A,3748.1735,N,12217.7419,W,1.36,49.28,160714,,,A*42
$GPRMC,200719.000,A,3748.1744,N,12217.7419,W,1.18,33.22,160714,,,A*4E
$GPRMC,200720.000,A,3748.1752,N,12217.7417,W,1.40,22.10,160714,,,A*41
$GPRMC,200721.000,A,3748.1755,N,12217.7415,W,0.85,33.91,160714,,,A*44
$GPRMC,200722.000,A,3748.1758,N,12217.7413,W,1.38,12.82,160714,,,A*4A
$GPRMC,200723.000,A,3748.1762,N,12217.7411,W,1.14,8.82,160714,,,A*75
$GPRMC,200724.000,A,3748.1767,N,12217.7411,W,1.62,14.16,160714,,,A*46
$GPRMC,200725.000,A,3748.1772,N,12217.7410,W,1.38,8.73,160714,,,A*73
$GPRMC,200726.000,A,3748.1776,N,12217.7406,W,1.61,7.35,160714,,,A*72
$GPRMC,200727.000,A,3748.1781,N,12217.7404,W,1.73,8.92,160714,,,A*78
$GPRMC,200728.000,A,3748.1786,N,12217.7403,W,1.66,355.37,160714,,,A*77
$GPRMC,200729.000,A,3748.1791,N,12217.7399,W,1.80,12.67,160714,,,A*49
$GPRMC,200730.000,A,3748.1797,N,12217.7398,W,1.56,2.31,160714,,,A*7F
$GPRMC,200731.000,A,3748.1802,N,12217.7397,W,1.80,0.75,160714,,,A*7B
$GPRMC,200732.000,A,3748.1808,N,12217.7396,W,1.92,0.11,160714,,,A*72
$GPRMC,200733.000,A,3748.1814,N,12217.7396,W,1.84,3.09,160714,,,A*73
$GPRMC,200734.000,A,3748.1821,N,12217.7396,W,1.82,6.01,160714,,,A*79
$GPRMC,200735.000,A,3748.1827,N,12217.7396,W,1.45,17.31,160714,,,A*46
$GPRMC,200736.000,A,3748.1832,N,12217.7390,W,1.86,22.00,160714,,,A*4C
$GPRMC,200737.000,A,3748.1838,N,12217.7389,W,1.97,12.59,160714,,,A*40
$GPRMC,200738.000,A,3748.1845,N,12217.7390,W,1.76,4.51,160714,,,A*7D
$GPRMC,200739.000,A,3748.1850,N,12217.7386,W,2.22,15.32,160714,,,A*48
$GPRMC,200740.000,A,3748.1857,N,12217.7380,W,1.83,21.26,160714,,,A*4D
$GPRMC,200741.000,A,3748.1862,N,12217.7376,W,1.68,17.20,160714,,,A*45
$GPRMC,200742.000,A,3748.1868,N,12217.7373,W,1.74,1.62,160714,,,A*75
$GPRMC,200743.000,A,3748.1875,N,12217.7373,W,1.80,20.22,160714,,,A*44
$GPRMC,200744.000,A,3748.1881,N,12217.7370,W,1.72,16.17,160714,,,A*45
$GPRMC,200745.000,A,3748.1888,N,12217.7367,W,1.93,7.43,160714,,,A*75
$GPRMC,200746.000,A,3748.1894,N,12217.7367,W,1.76,338.28,160714,,,A*72
$GPRMC,200747.000,A,3748.1900,N,12217.7370,W,1.72,340.30,160714,,,A*7B
$GPRMC,200748.000,A,3748.1905,N,12217.7371,W,1.81,1.77,160714,,,A*79
$GPRMC,200749.000,A,3748.1911,N,12217.7371,W,1.82,359.50,160714,,,A*75
$GPRMC,200750.000,A,3748.1916,N,12217.7371,W,1.93,351.13,160714,,,A*75
$GPRMC,200751.000,A,3748.1922,N,12217.7371,W,2.22,3.03,160714,,,A*7F
$GPRMC,200752.000,A,3748.1928,N,12217.7371,W,1.83,4.15,160714,,,A*7E
$GPRMC,200753.000,A,3748.1933,N,12217.7366,W,2.08,5.61,160714,,,A*71
$GPRMC,200754.000,A,3748.1940,N,12217.7364,W,1.67,14.57,160714,,,A*4F
$GPRMC,200755.000,A,3748.1944,N,12217.7360,W,1.31,32.22,160714,,,A*4B
$GPRMC,200756.000,A,3748.1950,N,12217.7356,W,1.41,21.24,160714,,,A*4B
$GPRMC,200757.000,A,3748.1958,N,12217.7358,W,1.10,18.69,160714,,,A*4B
$GPRMC,200758.000,A,3748.1964,N,12217.7355,W,1.87,17.28,160714,,,A*42
$GPRMC,200759.000,A,3748.1970,N,12217.7352,W,1.92,14.91,160714,,,A*44
$GPRMC,200800.000,A,3748.1977,N,12217.7350,W,1.93,15.96,160714,,,A*45
$GPRMC,200801.000,A,3748.1982,N,12217.7347,W,1.68,21.91,160714,,,A*4C
$GPRMC,200802.000,A,3748.1987,N,12217.7345,W,1.76,15.45,160714,,,A*49
$GPRMC,200803.000,A,3748.1993,N,12217.7345,W,1.99,354.34,160714,,,A*7C
$GPRMC,200804.000,A,3748.1999,N,12217.7345,W,1.88,355.43,160714,,,A*70
$GPRMC,200805.000,A,3748.2005,N,12217.7346,W,2.15,355.34,160714,,,A*7A
$GPRMC,200806.000,A,3748.2011,N,12217.7346,W,1.63,3.31,160714,,,A*7B
$GPRMC,200807.000,A,3748.2017,N,12217.7346,W,1.93,2.23,160714,,,A*71
$GPRMC,200808.000,A,3748.2023,N,12217.7345,W,1.89,7.01,160714,,,A*74
$GPRMC,200809.000,A,3748.2028,N,12217.7345,W,1.92,358.84,160714,,,A*70
$GPRMC,200810.000,A,3748.2033,N,12217.7345,W,1.87,7.33,160714,,,A*73
$GPRMC,200811.000,A,3748.2039,N,12217.7344,W,1.86,4.13,160714,,,A*79
$GPRMC,200812.000,A,3748.2044,N,12217.7343,W,1.84,5.41,160714,,,A*73
$GPRMC,200813.000,A,3748.2050,N,12217.7343,W,1.95,10.22,160714,,,A*46
$GPRMC,200814.000,A,3748.2056,N,12217.7342,W,2.16,3.49,160714,,,A*71
$GPRMC,200815.000,A,3748.2062,N,12217.7342,W,2.19,4.00,160714,,,A*72
$GPRMC,200816.000,A,3748.2069,N,12217.7342,W,2.34,358.61,160714,,,A*78
$GPRMC,200817.000,A,3748.2076,N,12217.7342,W,2.18,354.48,160714,,,A*7E
$GPRMC,200818.000,A,3748.2082,N,12217.7343,W,1.73,358.63,160714,,,A*70
$GPRMC,200819.000,A,3748.2087,N,12217.7342,W,2.05,6.86,160714,,,A*74
$GPRMC,200820.000,A,3748.2094,N,12217.7341,W,2.17,2.44,160714,,,A*76
$GPRMC,200821.000,A,3748.2100,N,12217.7341,W,1.85,358.52,160714,,,A*78
$GPRMC,200822.000,A,3748.2105,N,12217.7340,W,1.93,3.54,160714,,,A*73
$GPRMC,200823.000,A,3748.2110,N,12217.7340,W,1.49,359.37,160714,,,A*78
$GPRMC,200824.000,A,3748.2116,N,12217.7338,W,2.31,3.96,160714,,,A*7D
$GPRMC,200825.000,A,3748.2119,N,12217.7325,W,1.65,2.74,160714,,,A*70
$GPRMC,200826.000,A,3748.2122,N,12217.7317,W,1.59,356.62,160714,,,A*70
$GPRMC,200827.000,A,3748.2125,N,12217.7311,W,1.40,12.90,160714,,,A*46
$GPRMC,200828.000,A,3748.2128,N,12217.7306,W,1.34,18.82,160714,,,A*48
$GPRMC,200829.000,A,3748.2132,N,12217.7302,W,1.52,22.19,160714,,,D*48
$GPRMC,200830.000,A,3748.2137,N,12217.7298,W,1.80,8.73,160714,,,D*7C
$GPRMC,200831.000,A,3748.2146,N,12217.7298,W,2.11,10.25,160714,,,D*4A
$GPRMC,200832.000,A,3748.2152,N,12217.7295,W,1.62,22.54,160714,,,D*41
$GPRMC,200833.000,A,3748.2159,N,12217.7294,W,1.49,21.90,160714,,,D*48
$GPRMC,200834.000,A,3748.2165,N,12217.7294,W,1.40,20.25,160714,,,D*46
$GPRMC,200835.000,A,3748.2172,N,12217.7294,W,1.76,359.16,160714,,,D*79
$GPRMC,200836.000,A,3748.2178,N,12217.7294,W,1.74,356.76,160714,,,D*7B
$GPRMC,200837.000,A,3748.2184,N,12217.7293,W,1.64,6.36,160714,,,D*7D
$GPRMC,200838.000,A,3748.2190,N,12217.7292,W,1.73,4.77,160714,,,D*77
$GPRMC,200839.000,A,3748.2198,N,12217.7289,W,2.11,19.92,160714,,,D*44
$GPRMC,200840.000,A,3748.2202,N,12217.7288,W,1.73,13.92,160714,,,D*46
$GPRMC,200841.000,A,3748.2203,N,12217.7284,W,1.48,346.15,160714,,,D*7E
$GPRMC,200842.000,A,3748.2206,N,12217.7280,W,1.19,351.10,160714,,,D*7B
$GPRMC,200843.000,A,3748.2211,N,12217.7276,W,1.32,1.13,160714,,,D*79
$GPRMC,200844.000,A,3748.2217,N,12217.7272,W,1.24,13.76,160714,,,D*4B
$GPRMC,200845.000,A,3748.2221,N,12217.7267,W,1.12,61.79,160714,,,D*44
$GPRMC,200846.000,A,3748.2223,N,12217.7264,W,1.10,58.86,160714,,,D*4E
$GPRMC,200847.000,A,3748.2226,N,12217.7260,W,1.12,51.09,160714,,,D*42
$GPRMC,200848.000,A,3748.2225,N,12217.7257,W,1.01,62.20,160714,,,D*43
$GPRMC,200849.000,A,3748.2225,N,12217.7255,W,1.07,56.47,160714,,,D*40
$GPRMC,200850.000,A,3748.2233,N,12217.7250,W,1.03,40.54,160714,,,D*4B
$GPRMC,200851.000,A,3748.2238,N,12217.7247,W,0.71,48.30,160714,,,D*49
$GPRMC,200852.000,A,3748.2240,N,12217.7245,W,1.18,40.15,160714,,,D*46
$GPRMC,200853.000,A,3748.2246,N,12217.7240,W,1.38,34.02,160714,,,D*43
$GPRMC,200854.000,A,3748.2252,N,12217.7236,W,1.25,32.18,160714,,,D*41
$GPRMC,200855.000,A,3748.2257,N,12217.7234,W,1.51,37.54,160714,,,D*49
$GPRMC,200856.000,A,3748.2263,N,12217.7233,W,1.33,17.75,160714,,,D*4F
$GPRMC,200857.000,A,3748.2269,N,12217.7233,W,1.81,3.18,160714,,,D*73
$GPRMC,200858.000,A,3748.2276,N,12217.7234,W,1.94,3.56,160714,,,D*7B
$GPRMC,200859.000,A,3748.2282,N,12217.7235,W,1.80,4.58,160714,,,D*7C
$GPRMC,200900.000,A,3748.2289,N,12217.7235,W,1.63,2.44,160714,,,D*7C
$GPRMC,200901.000,A,3748.2295,N,12217.7237,W,1.56,11.86,160714,,,D*48
$GPRMC,200902.000,A,3748.2301,N,12217.7237,W,1.93,11.78,160714,,,D*4F
$GPRMC,200903.000,A,3748.2306,N,12217.7232,W,1.74,14.89,160714,,,D*4E
$GPRMC,200904.000,A,3748.2311,N,12217.7228,W,1.59,6.10,160714,,,D*78
$GPRMC,200905.000,A,3748.2314,N,12217.7225,W,1.34,359.05,160714,,,D*77
$GPRMC,200906.000,A,3748.2320,N,12217.7226,W,1.59,0.40,160714,,,D*75
$GPRMC,200907.000,A,3748.2325,N,12217.7226,W,1.56,5.99,160714,,,D*7F
$GPRMC,200908.000,A,3748.2331,N,12217.7227,W,1.49,9.90,160714,,,D*7F
$GPRMC,200909.000,A,3748.2336,N,12217.7226,W,1.59,11.71,160714,,,D*4F
$GPRMC,200910.000,A,3748.2343,N,12217.7224,W,1.76,18.16,160714,,,D*42
$GPRMC,200911.000,A,3748.2349,N,12217.7223,W,1.70,12.05,160714,,,D*40
$GPRMC,200912.000,A,3748.2354,N,12217.7221,W,1.68,11.29,160714,,,D*49
$GPRMC,200913.000,A,3748.2359,N,12217.7220,W,1.28,13.96,160714,,,D*46
$GPRMC,200914.000,A,3748.2364,N,12217.7220,W,1.31,4.39,160714,,,D*74
$GPRMC,200915.000,A,3748.2368,N,12217.7219,W,1.02,8.20,160714,,,D*77
$GPRMC,200916.000,A,3748.2372,N,12217.7219,W,0.80,18.35,160714,,,D*41
$GPRMC,200917.000,A,3748.2375,N,12217.7219,W,0.80,0.66,160714,,,D*78
$GPRMC,200918.000,A,3748.2378,N,12217.7220,W,0.85,336.24,160714,,,D*75
$GPRMC,200919.000,A,3748.2380,N,12217.7219,W,0.87,355.98,160714,,,D*79
$GPRMC,200920.000,A,3748.2383,N,12217.7219,W,0.91,341.51,160714,,,D*77
$GPRMC,200921.000,A,3748.2385,N,12217.7218,W,1.13,350.87,160714,,,D*71
$GPRMC,200922.000,A,3748.2388,N,12217.7217,W,0.53,5.71,160714,,,D*7F
$GPRMC,200923.000,A,3748.2390,N,12217.7215,W,0.63,352.96,160714,,,D*7E
$GPRMC,200924.000,A,3748.2392,N,12217.7213,W,0.70,15.21,160714,,,D*43
$GPRMC,200925.000,A,3748.2394,N,12217.7212,W,0.39,356.24,160714,,,D*79
$GPRMC,200926.000,A,3748.2396,N,12217.7210,W,0.40,13.49,160714,,,D*4D
$GPRMC,200927.000,A,3748.2397,N,12217.7208,W,0.40,32.49,160714,,,D*47
$GPRMC,200928.000,A,3748.2398,N,12217.7206,W,0.37,70.18,160714,,,D*4B
$GPRMC,200929.000,A,3748.2401,N,12217.7202,W,0.07,345.87,160714,,,D*79
$GPRMC,200930.000,A,3748.2403,N,12217.7198,W,0.21,74.15,160714,,,D*4D
$GPRMC,200931.000,A,3748.2404,N,12217.7196,W,0.27,77.46,160714,,,D*46
$GPRMC,200932.000,A,3748.2405,N,12217.7196,W,0.13,288.82,160714,,,D*79
$GPRMC,200933.000,A,3748.2405,N,12217.7195,W,0.19,189.08,160714,,,D*71
$GPRMC,200934.000,A,3748.2405,N,12217.7197,W,0.36,242.14,160714,,,D*70
$GPRMC,200935.000,A,3748.2406,N,12217.7197,W,0.46,257.95,160714,,,D*78
$GPRMC,200936.000,A,3748.2406,N,12217.7199,W,0.24,245.02,160714,,,D*7C
$GPRMC,200937.000,A,3748.2407,N,12217.7199,W,0.29,280.05,160714,,,D*7F
$GPRMC,200938.000,A,3748.2407,N,12217.7202,W,0.22,292.50,160714,,,D*79
$GPRMC,200939.000,A,3748.2408,N,12217.7201,W,0.30,306.87,160714,,,D*71
$GPRMC,200940.000,A,3748.2409,N,12217.7201,W,0.35,36.50,160714,,,D*41
$GPRMC,200941.000,A,3748.2410,N,12217.7198,W,0.29,62.95,160714,,,D*4E
$GPRMC,200942.000,A,3748.2411,N,12217.7203,W,0.83,306.16,160714,,,A*72
$GPRMC,200943.000,A,3748.2412,N,12217.7201,W,0.98,331.32,160714,,,A*7A
$GPRMC,200944.000,A,3748.2415,N,12217.7202,W,0.86,325.83,160714,,,A*79
$GPRMC,200945.000,A,3748.2419,N,12217.7203,W,1.09,349.31,160714,,,A*70
$GPRMC,200946.000,A,3748.2421,N,12217.7207,W,1.03,329.47,160714,,,A*71
$GPRMC,200947.000,A,3748.2421,N,12217.7210,W,0.46,322.09,160714,,,A*77
$GPRMC,200948.000,A,3748.2420,N,12217.7213,W,0.32,262.90,160714,,,A*7C
$GPRMC,200949.000,A,3748.2420,N,12217.7211,W,0.53,163.35,160714,,,A*75
$GPRMC,200950.000,A,3748.2422,N,12217.7210,W,0.18,343.20,160714,,,A*75
$GPRMC,200951.000,A,3748.2423,N,12217.7211,W,0.05,212.00,160714,,,A*7F
$GPRMC,200952.000,A,3748.2421,N,12217.7210,W,0.26,187.24,160714,,,A*77
$GPRMC,200953.000,A,3748.2420,N,12217.7211,W,0.25,280.28,160714,,,A*7D
$GPRMC,200954.000,A,3748.2418,N,12217.7210,W,0.17,283.65,160714,,,A*7B
$GPRMC,200955.000,A,3748.2422,N,12217.7212,W,0.58,318.61,160714,,,A*7D
$GPRMC,200956.000,A,3748.2423,N,12217.7213,W,0.43,322.82,160714,,,A*70
$GPRMC,200957.000,A,3748.2425,N,12217.7214,W,0.31,344.85,160714,,,A*72
$GPRMC,200958.000,A,3748.2426,N,12217.7214,W,0.35,269.33,160714,,,A*79
$GPRMC,200959.000,A,3748.2427,N,12217.7216,W,0.60,290.68,160714,,,A*73
$GPRMC,201000.000,A,3748.2428,N,12217.7220,W,1.67,275.34,160714,,,A*79
$GPRMC,201001.000,A,3748.2427,N,12217.7228,W,1.71,246.22,160714,,,A*7F
$GPRMC,201002.000,A,3748.2426,N,12217.7232,W,0.89,236.59,160714,,,A*7B
$GPRMC,201003.000,A,3748.2426,N,12217.7235,W,1.07,282.94,160714,,,A*74
$GPRMC,201004.000,A,3748.2422,N,12217.7237,W,1.42,241.68,160714,,,A*78
$GPRMC,201005.000,A,3748.2420,N,12217.7238,W,0.77,243.17,160714,,,A*79
$GPRMC,201006.000,A,3748.2417,N,12217.7240,W,1.21,287.44,160714,,,A*7D
$GPRMC,201007.000,A,3748.2417,N,12217.7244,W,1.47,289.18,160714,,,A*7F
$GPRMC,201008.000,A,3748.2417,N,12217.7247,W,1.16,291.46,160714,,,A*75
$GPRMC,201009.000,A,3748.2416,N,12217.7249,W,0.90,270.65,160714,,,A*7A
$GPRMC,201010.000,A,3748.2414,N,12217.7253,W,1.11,268.45,160714,,,A*78
$GPRMC,201011.000,A,3748.2414,N,12217.7257,W,1.24,289.75,160714,,,A*77
$GPRMC,201012.000,A,3748.2414,N,12217.7260,W,0.83,285.75,160714,,,A*70
$GPRMC,201013.000,A,3748.2414,N,12217.7262,W,1.42,287.07,160714,,,A*78
$GPRMC,201014.000,A,3748.2415,N,12217.7265,W,1.34,301.28,160714,,,A*7A
$GPRMC,201015.000,A,3748.2416,N,12217.7267,W,1.41,298.45,160714,,,A*72
$GPRMC,201016.000,A,3748.2417,N,12217.7270,W,1.20,283.96,160714,,,A*75
$GPRMC,201017.000,A,3748.2416,N,12217.7274,W,1.08,275.88,160714,,,A*7D
$GPRMC,201018.000,A,3748.2412,N,12217.7274,W,0.97,287.11,160714,,,A*7C
$GPRMC,201019.000,A,3748.2410,N,12217.7279,W,1.63,279.63,160714,,,A*7C
$GPRMC,201020.000,A,3748.2412,N,12217.7286,W,1.41,285.37,160714,,,A*76
$GPRMC,201021.000,A,3748.2413,N,12217.7292,W,1.31,272.16,160714,,,A*7F
$GPRMC,201022.000,A,3748.2417,N,12217.7297,W,1.14,260.32,160714,,,A*7F
$GPRMC,201023.000,A,3748.2419,N,12217.7301,W,0.79,242.40,160714,,,A*71
$GPRMC,201024.000,A,3748.2421,N,12217.7306,W,1.01,263.11,160714,,,A*73
$GPRMC,201025.000,A,3748.2422,N,12217.7307,W,0.99,305.86,160714,,,A*7F
$GPRMC,201026.000,A,3748.2426,N,12217.7307,W,1.00,346.09,160714,,,A*79
$GPRMC,201027.000,A,3748.2433,N,12217.7312,W,1.64,305.94,160714,,,A*79
$GPRMC,201028.000,A,3748.2436,N,12217.7320,W,1.77,278.27,160714,,,A*73
$GPRMC,201029.000,A,3748.2438,N,12217.7329,W,1.55,269.15,160714,,,A*74
$GPRMC,201030.000,A,3748.2439,N,12217.7332,W,1.46,263.45,160714,,,A*7A
$GPRMC,201031.000,A,3748.2441,N,12217.7335,W,0.95,268.17,160714,,,A*70
$GPRMC,201032.000,A,3748.2443,N,12217.7341,W,1.11,263.69,160714,,,A*7D
$GPRMC,201033.000,A,3748.2450,N,12217.7349,W,0.70,211.91,160714,,,A*72
$GPRMC,201034.000,A,3748.2455,N,12217.7356,W,0.71,291.58,160714,,,A*72
$GPRMC,201035.000,A,3748.2458,N,12217.7362,W,1.32,256.79,160714,,,A*77
$GPRMC,201036.000,A,3748.2461,N,12217.7366,W,0.90,256.33,160714,,,A*7D
$GPRMC,201037.000,A,3748.2461,N,12217.7375,W,1.19,265.27,160714,,,A*7B
$GPRMC,201038.000,A,3748.2459,N,12217.7386,W,1.28,249.34,160714,,,A*7D
$GPRMC,201039.000,A,3748.2459,N,12217.7387,W,0.85,264.73,160714,,,A*77
$GPRMC,201040.000,A,3748.2459,N,12217.7388,W,0.25,212.31,160714,,,A*7B
$GPRMC,201041.000,A,3748.2458,N,12217.7390,W,0.86,229.17,160714,,,A*77
$GPRMC,201042.000,A,3748.2457,N,12217.7392,W,0.67,242.51,160714,,,A*79
$GPRMC,201043.000,A,3748.2456,N,12217.7394,W,0.76,246.51,160714,,,A*7B
$GPRMC,201044.000,A,3748.2454,N,12217.7396,W,0.78,273.62,160714,,,A*74
$GPRMC,201045.000,A,3748.2454,N,12217.7401,W,0.96,265.89,160714,,,A*7E
$GPRMC,201046.000,A,3748.2454,N,12217.7406,W,1.17,261.40,160714,,,A*73
$GPRMC,201047.000,A,3748.2455,N,12217.7412,W,1.06,271.95,160714,,,A*7F
$GPRMC,201048.000,A,3748.2459,N,12217.7417,W,0.93,310.68,160714,,,A*70
$GPRMC,201049.000,A,3748.2461,N,12217.7423,W,1.70,282.91,160714,,,A*7D
$GPRMC,201050.000,A,3748.2464,N,12217.7434,W,1.54,277.39,160714,,,A*78
$GPRMC,201051.000,A,3748.2466,N,12217.7441,W,1.63,273.59,160714,,,A*7F
$GPRMC,201052.000,A,3748.2468,N,12217.7449,W,1.69,256.57,160714,,,A*79
$GPRMC,201053.000,A,3748.2466,N,12217.7456,W,1.27,244.30,160714,,,A*70
$GPRMC,201054.000,A,3748.2464,N,12217.7461,W,1.20,245.92,160714,,,A*7F
$GPRMC,201055.000,A,3748.2464,N,12217.7465,W,1.14,247.52,160714,,,A*73
$GPRMC,201056.000,A,3748.2465,N,12217.7470,W,1.38,266.03,160714,,,A*7C
$GPRMC,201057.000,A,3748.2467,N,12217.7475,W,1.57,266.98,160714,,,A*71
$GPRMC,201058.000,A,3748.2469,N,12217.7482,W,1.42,267.68,160714,,,A*72
$GPRMC,201059.000,A,3748.2471,N,12217.7488,W,0.98,254.94,160714,,,A*75
$GPRMC,201100.000,A,3748.2473,N,12217.7491,W,0.90,271.62,160714,,,A*74
$GPRMC,201101.000,A,3748.2476,N,12217.7497,W,1.61,277.23,160714,,,A*7A
$GPRMC,201102.000,A,3748.2478,N,12217.7506,W,1.72,278.42,160714,,,A*74
$GPRMC,201103.000,A,3748.2481,N,12217.7516,W,1.77,286.73,160714,,,A*74
$GPRMC,201104.000,A,3748.2483,N,12217.7524,W,1.67,273.75,160714,,,A*7D
$GPRMC,201105.000,A,3748.2484,N,12217.7530,W,1.40,255.29,160714,,,A*76
$GPRMC,201106.000,A,3748.2483,N,12217.7535,W,0.98,242.65,160714,,,A*7D
$GPRMC,201107.000,A,3748.2483,N,12217.7539,W,0.93,267.40,160714,,,A*7B
$GPRMC,201108.000,A,3748.2481,N,12217.7540,W,1.15,256.96,160714,,,A*7E
$GPRMC,201109.000,A,3748.2481,N,12217.7548,W,1.54,264.57,160714,,,A*7E
$GPRMC,201110.000,A,3748.2484,N,12217.7557,W,1.12,261.66,160714,,,A*78
$GPRMC,201111.000,A,3748.2485,N,12217.7564,W,1.32,264.58,160714,,,A*72
$GPRMC,201112.000,A,3748.2486,N,12217.7571,W,1.27,259.03,160714,,,A*72
$GPRMC,201113.000,A,3748.2485,N,12217.7577,W,1.86,251.98,160714,,,A*77
$GPRMC,201114.000,A,3748.2486,N,12217.7585,W,1.98,265.97,160714,,,A*79
$GPRMC,201115.000,A,3748.2490,N,12217.7596,W,1.57,258.49,160714,,,A*73
$GPRMC,201116.000,A,3748.2495,N,12217.7601,W,1.01,253.71,160714,,,A*7B
$GPRMC,201117.000,A,3748.2495,N,12217.7606,W,1.68,265.49,160714,,,A*7C
$GPRMC,201118.000,A,3748.2498,N,12217.7612,W,1.37,273.59,160714,,,A*77
$GPRMC,201119.000,A,3748.2499,N,12217.7620,W,1.30,268.26,160714,,,A*73
$GPRMC,201120.000,A,3748.2499,N,12217.7625,W,1.41,264.26,160714,,,A*76
$GPRMC,201121.000,A,3748.2500,N,12217.7635,W,1.52,270.77,160714,,,A*74
$GPRMC,201122.000,A,3748.2500,N,12217.7645,W,2.06,264.84,160714,,,A*7B
$GPRMC,201123.000,A,3748.2502,N,12217.7654,W,1.63,254.64,160714,,,A*75
$GPRMC,201124.000,A,3748.2505,N,12217.7661,W,2.11,288.88,160714,,,A*76
$GPRMC,201125.000,A,3748.2510,N,12217.7672,W,1.36,289.02,160714,,,A*74
$GPRMC,201126.000,A,3748.2514,N,12217.7677,W,1.24,301.32,160714,,,A*77
$GPRMC,201127.000,A,3748.2513,N,12217.7677,W,0.87,288.84,160714,,,A*74
$GPRMC,201128.000,A,3748.2514,N,12217.7681,W,0.63,238.40,160714,,,A*7C
$GPRMC,201129.000,A,3748.2513,N,12217.7685,W,1.25,224.76,160714,,,A*75
$GPRMC,201130.000,A,3748.2515,N,12217.7692,W,1.25,237.99,160714,,,A*7E
$GPRMC,201131.000,A,3748.2517,N,12217.7696,W,1.44,228.06,160714,,,A*76
$GPRMC,201132.000,A,3748.2517,N,12217.7700,W,1.46,220.12,160714,,,A*74
$GPRMC,201133.000,A,3748.2520,N,12217.7706,W,1.06,250.63,160714,,,A*72
$GPRMC,201134.000,A,3748.2524,N,12217.7712,W,1.16,257.41,160714,,,A*72
$GPRMC,201135.000,A,3748.2529,N,12217.7721,W,1.61,269.35,160714,,,A*70
$GPRMC,201136.000,A,3748.2536,N,12217.7725,W,1.30,265.86,160714,,,A*79
$GPRMC,201137.000,A,3748.2537,N,12217.7734,W,1.62,268.32,160714,,,A*7C
$GPRMC,201138.000,A,3748.2537,N,12217.7741,W,1.38,272.45,160714,,,A*75
$GPRMC,201139.000,A,3748.2537,N,12217.7749,W,1.40,264.05,160714,,,A*70
$GPRMC,201140.000,A,3748.2537,N,12217.7755,W,1.43,263.89,160714,,,A*73
$GPRMC,201141.000,A,3748.2537,N,12217.7761,W,1.99,263.77,160714,,,A*73
$GPRMC,201142.000,A,3748.2534,N,12217.7768,W,1.33,239.82,160714,,,A*7F
$GPRMC,201143.000,A,3748.2532,N,12217.7772,W,1.23,228.24,160714,,,A*7E
$GPRMC,201144.000,A,3748.2531,N,12217.7775,W,1.25,261.55,160714,,,A*70
$GPRMC,201145.000,A,3748.2531,N,12217.7780,W,1.39,256.10,160714,,,A*73
$GPRMC,201146.000,A,3748.2531,N,12217.7785,W,1.13,260.20,160714,,,A*7B
$GPRMC,201147.000,A,3748.2533,N,12217.7790,W,1.38,292.45,160714,,,A*7B
$GPRMC,201148.000,A,3748.2536,N,12217.7798,W,1.20,279.44,160714,,,A*74
$GPRMC,201149.000,A,3748.2538,N,12217.7804,W,1.35,263.87,160714,,,A*71
$GPRMC,201150.000,A,3748.2537,N,12217.7808,W,1.18,261.92,160714,,,A*73
$GPRMC,201151.000,A,3748.2534,N,12217.7812,W,0.72,236.87,160714,,,A*71
$GPRMC,201152.000,A,3748.2532,N,12217.7814,W,0.94,242.42,160714,,,A*70
$GPRMC,201153.000,A,3748.2532,N,12217.7818,W,1.25,287.33,160714,,,A*79
$GPRMC,201154.000,A,3748.2531,N,12217.7818,W,0.56,293.28,160714,,,A*77
$GPRMC,201155.000,A,3748.2532,N,12217.7819,W,0.30,302.24,160714,,,A*71
$GPRMC,201156.000,A,3748.2538,N,12217.7823,W,0.44,345.34,160714,,,D*75
$GPRMC,201157.000,A,3748.2539,N,12217.7823,W,0.10,253.09,160714,,,D*7C
$GPRMC,201158.000,A,3748.2540,N,12217.7823,W,0.30,176.43,160714,,,D*75
$GPRMC,201159.000,A,3748.2542,N,12217.7822,W,0.13,108.49,160714,,,D*75
$GPRMC,201200.000,A,3748.2544,N,12217.7822,W,0.23,5.38,160714,,,D*75
$GPRMC,201201.000,A,3748.2545,N,12217.7822,W,0.12,297.87,160714,,,D*7A
$GPRMC,201202.000,A,3748.2546,N,12217.7822,W,0.12,129.81,160714,,,D*7A
$GPRMC,201203.000,A,3748.2547,N,12217.7821,W,0.16,17.46,160714,,,D*4A
$GPRMC,201204.000,A,3748.2549,N,12217.7821,W,0.25,335.17,160714,,,D*74
$GPRMC,201205.000,A,3748.2550,N,12217.7821,W,0.27,351.65,160714,,,D*78
$GPRMC,201206.000,A,3748.2552,N,12217.7822,W,0.47,329.82,160714,,,D*7A
$GPRMC,201207.000,A,3748.2552,N,12217.7823,W,0.18,293.20,160714,,,D*78
$GPRMC,201208.000,A,3748.2552,N,12217.7823,W,0.18,156.49,160714,,,D*72
$GPRMC,201209.000,A,3748.2553,N,12217.7823,W,0.30,290.91,160714,,,D*74
$GPRMC,201210.000,A,3748.2554,N,12217.7823,W,0.17,342.29,160714,,,D*73
$GPRMC,201211.000,A,3748.2554,N,12217.7823,W,0.71,48.33,160714,,,D*40
$GPRMC,201212.000,A,3748.2563,N,12217.7826,W,1.03,352.86,160714,,,D*70
$GPRMC,201213.000,A,3748.2569,N,12217.7829,W,0.68,330.56,160714,,,D*71
$GPRMC,201214.000,A,3748.2572,N,12217.7831,W,0.31,324.27,160714,,,D*7A
$GPRMC,201215.000,A,3748.2574,N,12217.7831,W,0.29,69.70,160714,,,D*4C
$GPRMC,201216.000,A,3748.2575,N,12217.7830,W,0.56,84.48,160714,,,D*4F
$GPRMC,201217.000,A,3748.2576,N,12217.7827,W,0.93,69.55,160714,,,A*48
$GPRMC,201218.000,A,3748.2580,N,12217.7825,W,2.05,17.87,160714,,,A*47
$GPRMC,201219.000,A,3748.2586,N,12217.7825,W,2.35,6.03,160714,,,A*7F
$GPRMC,201220.000,A,3748.2594,N,12217.7828,W,1.88,16.85,160714,,,A*41
$GPRMC,201221.000,A,3748.2601,N,12217.7826,W,2.44,16.20,160714,,,A*4D
$GPRMC,201222.000,A,3748.2607,N,12217.7825,W,2.33,3.85,160714,,,A*70
$GPRMC,201223.000,A,3748.2613,N,12217.7824,W,2.29,0.35,160714,,,A*76
$GPRMC,201224.000,A,3748.2617,N,12217.7824,W,2.04,353.88,160714,,,A*79
$GPRMC,201225.000,A,3748.2622,N,12217.7824,W,2.03,355.13,160714,,,A*7D
$GPRMC,201226.000,A,3748.2627,N,12217.7823,W,1.52,2.08,160714,,,A*70
$GPRMC,201227.000,A,3748.2632,N,12217.7823,W,1.92,354.51,160714,,,A*75
$GPRMC,201228.000,A,3748.2637,N,12217.7821,W,1.74,353.06,160714,,,A*70
$GPRMC,201229.000,A,3748.2642,N,12217.7824,W,1.57,355.80,160714,,,A*7F
$GPRMC,201230.000,A,3748.2646,N,12217.7823,W,1.48,0.60,160714,,,A*77
$GPRMC,201231.000,A,3748.2651,N,12217.7822,W,1.55,14.21,160714,,,A*4D
$GPRMC,201232.000,A,3748.2656,N,12217.7821,W,1.47,1.14,160714,,,A*7B
$GPRMC,201233.000,A,3748.2659,N,12217.7820,W,1.46,7.74,160714,,,A*75
$GPRMC,201234.000,A,3748.2662,N,12217.7821,W,1.29,341.07,160714,,,A*77
$GPRMC,201235.000,A,3748.2666,N,12217.7821,W,1.08,357.87,160714,,,A*7E
$GPRMC,201236.000,A,3748.2669,N,12217.7820,W,1.16,18.69,160714,,,A*44
$GPRMC,201237.000,A,3748.2674,N,12217.7819,W,1.61,5.39,160714,,,A*7A
$GPRMC,201238.000,A,3748.2680,N,12217.7819,W,1.31,357.25,160714,,,A*72
$GPRMC,201239.000,A,3748.2686,N,12217.7821,W,1.43,357.02,160714,,,A*7E
$GPRMC,201240.000,A,3748.2692,N,12217.7821,W,1.30,9.61,160714,,,A*7C
$GPRMC,201241.000,A,3748.2696,N,12217.7820,W,1.52,0.41,160714,,,A*77
$GPRMC,201242.000,A,3748.2701,N,12217.7822,W,1.48,346.20,160714,,,A*74
$GPRMC,201243.000,A,3748.2705,N,12217.7824,W,1.32,346.88,160714,,,A*78
$GPRMC,201244.000,A,3748.2709,N,12217.7806,W,1.45,12.04,160714,,,A*45
$GPRMC,201245.000,A,3748.2715,N,12217.7807,W,1.49,350.44,160714,,,A*75
$GPRMC,201246.000,A,3748.2720,N,12217.7808,W,1.26,354.11,160714,,,A*72
$GPRMC,201247.000,A,3748.2724,N,12217.7809,W,1.22,13.27,160714,,,A*47
$GPRMC,201248.000,A,3748.2731,N,12217.7809,W,1.84,7.77,160714,,,A*70
$GPRMC,201249.000,A,3748.2738,N,12217.7809,W,1.84,0.67,160714,,,A*7E
$GPRMC,201250.000,A,3748.2745,N,12217.7811,W,1.75,333.98,160714,,,A*78
$GPRMC,201251.000,A,3748.2751,N,12217.7813,W,1.81,349.82,160714,,,A*73
$GPRMC,201252.000,A,3748.2757,N,12217.7812,W,1.15,17.98,160714,,,A*49
$GPRMC,201253.000,A,3748.2761,N,12217.7814,W,0.98,12.11,160714,,,A*4B
$GPRMC,201254.000,A,3748.2765,N,12217.7803,W,0.87,25.19,160714,,,A*4C
$GPRMC,201255.000,A,3748.2768,N,12217.7795,W,0.90,35.81,160714,,,A*46
$GPRMC,201256.000,A,3748.2768,N,12217.7786,W,0.84,5.97,160714,,,A*76
$GPRMC,201257.000,A,3748.2767,N,12217.7779,W,0.72,18.43,160714,,,A*44
$GPRMC,201258.000,A,3748.2768,N,12217.7772,W,0.98,358.02,160714,,,A*79
$GPRMC,201259.000,A,3748.2771,N,12217.7768,W,1.18,0.13,160714,,,A*7C
$GPRMC,201300.000,A,3748.2776,N,12217.7767,W,1.39,8.37,160714,,,A*74
$GPRMC,201301.000,A,3748.2781,N,12217.7767,W,1.74,6.85,160714,,,A*73
$GPRMC,201302.000,A,3748.2786,N,12217.7767,W,1.39,358.62,160714,,,A*7F
$GPRMC,201303.000,A,3748.2791,N,12217.7765,W,1.36,2.56,160714,,,A*7E
$GPRMC,201304.000,A,3748.2795,N,12217.7764,W,1.38,3.50,160714,,,A*75
$GPRMC,201305.000,A,3748.2801,N,12217.7764,W,1.57,3.98,160714,,,A*7B
$GPRMC,201306.000,A,3748.2806,N,12217.7768,W,1.59,353.83,160714,,,A*71
$GPRMC,201307.000,A,3748.2811,N,12217.7768,W,1.64,2.46,160714,,,A*76
$GPRMC,201308.000,A,3748.2816,N,12217.7768,W,1.78,5.66,160714,,,A*76
$GPRMC,201309.000,A,3748.2820,N,12217.7768,W,1.50,350.14,160714,,,A*7E
$GPRMC,201310.000,A,3748.2826,N,12217.7770,W,1.53,354.58,160714,,,A*76
$GPRMC,201311.000,A,3748.2830,N,12217.7768,W,1.61,7.82,160714,,,A*7A
$GPRMC,201312.000,A,3748.2835,N,12217.7762,W,1.37,8.06,160714,,,A*76
$GPRMC,201313.000,A,3748.2839,N,12217.7759,W,1.32,16.28,160714,,,A*45
$GPRMC,201314.000,A,3748.2844,N,12217.7752,W,1.91,24.06,160714,,,A*47
$GPRMC,201315.000,A,3748.2849,N,12217.7750,W,1.58,17.14,160714,,,A*4F
$GPRMC,201316.000,A,3748.2854,N,12217.7749,W,1.74,1.88,160714,,,A*74
$GPRMC,201317.000,A,3748.2858,N,12217.7748,W,1.50,12.77,160714,,,A*4C
$GPRMC,201318.000,A,3748.2863,N,12217.7747,W,1.45,2.83,160714,,,A*7A
$GPRMC,201319.000,A,3748.2867,N,12217.7746,W,1.73,12.01,160714,,,A*40
$GPRMC,201320.000,A,3748.2872,N,12217.7745,W,1.80,357.62,160714,,,A*76
$GPRMC,201321.000,A,3748.2878,N,12217.7745,W,1.52,12.86,160714,,,A*4A
$GPRMC,201322.000,A,3748.2882,N,12217.7743,W,1.61,12.03,160714,,,A*47
$GPRMC,201323.000,A,3748.2887,N,12217.7740,W,1.36,14.41,160714,,,A*42
